[{"id":1,"name":"Riffpath","image":"https://robohash.org/utcommodieos.png?size=1000x1000&set=set1","description":"Pellentesque eget nunc.","location":{"address":"589 Alpine Hill","lat":16.4359827,"lon":104.3559158},"availableRooms":[{"id":1,"name":"Tagfeed"},{"id":2,"name":"Jayo"},{"id":3,"name":"Zoonder"},{"id":4,"name":"Voonix"},{"id":5,"name":"Livetube"},{"id":6,"name":"Lazz"},{"id":7,"name":"Kayveo"},{"id":8,"name":"Demimbu"},{"id":9,"name":"Photofeed"}],"unavailableRooms":[]},
{"id":2,"name":"Riffpath","image":"https://robohash.org/harumipsumexercitationem.png?size=1000x1000&set=set1","description":"Donec diam neque, vestibulum eget, vulputate ut, ultrices vel, augue. Vestibulum ante ipsum primis in faucibus orci luctus et ultrices posuere cubilia Curae; Donec pharetra, magna vestibulum aliquet ultrices, erat tortor sollicitudin mi, sit amet lobortis sapien sapien non mi. Integer ac neque.","location":{"address":"5872 Shelley Court","lat":-7.9110809,"lon":111.4253892},"availableRooms":[{"id":1,"name":"Realmix"},{"id":2,"name":"Tagopia"},{"id":3,"name":"Thoughtmix"},{"id":4,"name":"Skinte"},{"id":5,"name":"Topdrive"}],"unavailableRooms":[]},
{"id":3,"name":"Kazio","image":"https://robohash.org/nobissequia.png?size=1000x1000&set=set1","description":"Duis ac nibh.","location":{"address":"1919 Mockingbird Trail","lat":-7.5347018,"lon":109.0274877},"availableRooms":[{"id":1,"name":"Blogtag"},{"id":2,"name":"Katz"},{"id":3,"name":"Zoomlounge"},{"id":4,"name":"Voomm"},{"id":5,"name":"Realfire"},{"id":6,"name":"Tekfly"},{"id":7,"name":"Babbleset"},{"id":8,"name":"Jazzy"},{"id":9,"name":"Rooxo"}],"unavailableRooms":[]},
{"id":4,"name":"Rhyloo","image":"https://robohash.org/utdolorumrerum.png?size=1000x1000&set=set1","description":"Phasellus sit amet erat.","location":{"address":"77 Katie Drive","lat":32.147679,"lon":114.091192},"availableRooms":[{"id":1,"name":"Aimbu"},{"id":2,"name":"Fatz"},{"id":3,"name":"Twinder"},{"id":4,"name":"Aimbu"}],"unavailableRooms":[]},
{"id":5,"name":"Voonte","image":"https://robohash.org/doloresconsequaturalias.png?size=1000x1000&set=set1","description":"Donec semper sapien a libero.","location":{"address":"01684 Loomis Parkway","lat":38.3237571,"lon":-108.1821561},"availableRooms":[{"id":1,"name":"Vinder"},{"id":2,"name":"InnoZ"}],"unavailableRooms":[]},
{"id":6,"name":"Kayveo","image":"https://robohash.org/sedveniamquaerat.png?size=1000x1000&set=set1","description":"Duis bibendum, felis sed interdum venenatis, turpis enim blandit mi, in porttitor pede justo eu massa. Donec dapibus. Duis at velit eu est congue elementum.","location":{"address":"0636 Esker Pass","lat":-6.3384977,"lon":106.1610343},"availableRooms":[{"id":1,"name":"Thoughtworks"},{"id":2,"name":"Aivee"},{"id":3,"name":"Skiba"},{"id":4,"name":"Jabbersphere"},{"id":5,"name":"Youopia"},{"id":6,"name":"Skyndu"},{"id":7,"name":"Skiptube"},{"id":8,"name":"Demivee"}],"unavailableRooms":[]},
{"id":7,"name":"Kazu","image":"https://robohash.org/suntearumnihil.png?size=1000x1000&set=set1","description":"Fusce congue, diam id ornare imperdiet, sapien urna pretium nisl, ut volutpat sapien arcu sed augue.","location":{"address":"1 Marcy Crossing","lat":12.6234721,"lon":-87.1273253},"availableRooms":[{"id":1,"name":"Mydeo"},{"id":2,"name":"Photospace"},{"id":3,"name":"Oodoo"},{"id":4,"name":"Skyba"},{"id":5,"name":"Livepath"},{"id":6,"name":"Tazzy"}],"unavailableRooms":[]},
{"id":8,"name":"Oyoloo","image":"https://robohash.org/illoutquod.png?size=1000x1000&set=set1","description":"Sed sagittis. Nam congue, risus semper porta volutpat, quam pede lobortis ligula, sit amet eleifend pede libero quis orci. Nullam molestie nibh in lectus.","location":{"address":"07 Northland Street","lat":39.934201,"lon":116.430668},"availableRooms":[{"id":1,"name":"Pixope"}],"unavailableRooms":[]},
{"id":9,"name":"Eimbee","image":"https://robohash.org/omnisinea.png?size=1000x1000&set=set1","description":"Quisque porta volutpat erat.","location":{"address":"71036 Main Plaza","lat":57.7761739,"lon":14.2587374},"availableRooms":[{"id":1,"name":"Linktype"},{"id":2,"name":"Topicware"},{"id":3,"name":"Lazz"},{"id":4,"name":"Roomm"},{"id":5,"name":"Dabvine"}],"unavailableRooms":[]},
{"id":10,"name":"Zoomcast","image":"https://robohash.org/etcumvoluptatibus.png?size=1000x1000&set=set1","description":"Donec quis orci eget orci vehicula condimentum.","location":{"address":"4 Jenna Road","lat":41.7815196,"lon":123.4582948},"availableRooms":[{"id":1,"name":"Oyoyo"},{"id":2,"name":"Skaboo"},{"id":3,"name":"Zooveo"},{"id":4,"name":"Skynoodle"},{"id":5,"name":"Photofeed"},{"id":6,"name":"Gabtune"},{"id":7,"name":"Plajo"},{"id":8,"name":"Oodoo"}],"unavailableRooms":[]},
{"id":11,"name":"Linklinks","image":"https://robohash.org/maioresatrepellat.png?size=1000x1000&set=set1","description":"Nulla tellus. In sagittis dui vel nisl. Duis ac nibh.","location":{"address":"2 Twin Pines Parkway","lat":18.1096868,"lon":-95.8803869},"availableRooms":[{"id":1,"name":"Realpoint"},{"id":2,"name":"Digitube"},{"id":3,"name":"Oyoloo"},{"id":4,"name":"Jabbertype"},{"id":5,"name":"Abata"},{"id":6,"name":"Oozz"},{"id":7,"name":"Oyoloo"}],"unavailableRooms":[]},
{"id":12,"name":"Quinu","image":"https://robohash.org/seddeserunteum.png?size=1000x1000&set=set1","description":"Cras in purus eu magna vulputate luctus. Cum sociis natoque penatibus et magnis dis parturient montes, nascetur ridiculus mus. Vivamus vestibulum sagittis sapien.","location":{"address":"9217 Quincy Avenue","lat":-8.3743886,"lon":113.6383187},"availableRooms":[{"id":1,"name":"Cogilith"},{"id":2,"name":"Tagpad"},{"id":3,"name":"Avamm"},{"id":4,"name":"Feedbug"},{"id":5,"name":"Zoombeat"},{"id":6,"name":"Jaxworks"},{"id":7,"name":"Topicware"},{"id":8,"name":"Plajo"},{"id":9,"name":"Devpoint"}],"unavailableRooms":[]},
{"id":13,"name":"Wordware","image":"https://robohash.org/autabconsequatur.png?size=1000x1000&set=set1","description":"Vestibulum quam sapien, varius ut, blandit non, interdum in, ante. Vestibulum ante ipsum primis in faucibus orci luctus et ultrices posuere cubilia Curae; Duis faucibus accumsan odio.","location":{"address":"61785 Northfield Parkway","lat":28.582654,"lon":121.365123},"availableRooms":[],"unavailableRooms":[]},
{"id":14,"name":"Snaptags","image":"https://robohash.org/mollitiaquiadebitis.png?size=1000x1000&set=set1","description":"Nam dui. Proin leo odio, porttitor id, consequat in, consequat ut, nulla. Sed accumsan felis.","location":{"address":"8979 Eastwood Trail","lat":-8.1995552,"lon":112.1060214},"availableRooms":[{"id":1,"name":"Yacero"}],"unavailableRooms":[]},
{"id":15,"name":"Twinte","image":"https://robohash.org/autemadipiscinobis.png?size=1000x1000&set=set1","description":"Praesent blandit. Nam nulla.","location":{"address":"94 Stang Lane","lat":50.0898965,"lon":19.7935705},"availableRooms":[{"id":1,"name":"Fivebridge"},{"id":2,"name":"Wordify"},{"id":3,"name":"Youopia"},{"id":4,"name":"Kanoodle"},{"id":5,"name":"Fiveclub"},{"id":6,"name":"Chatterbridge"},{"id":7,"name":"Minyx"},{"id":8,"name":"Trilith"},{"id":9,"name":"Talane"}],"unavailableRooms":[]},
{"id":16,"name":"Kimia","image":"https://robohash.org/dignissimosassumendaat.png?size=1000x1000&set=set1","description":"Cras mi pede, malesuada in, imperdiet et, commodo vulputate, justo.","location":{"address":"48 Starling Avenue","lat":15.86056,"lon":120.55139},"availableRooms":[{"id":1,"name":"Avamm"},{"id":2,"name":"Rhynyx"},{"id":3,"name":"Blogpad"},{"id":4,"name":"Youspan"},{"id":5,"name":"JumpXS"},{"id":6,"name":"Thoughtmix"}],"unavailableRooms":[]},
{"id":17,"name":"Tekfly","image":"https://robohash.org/ametdoloremquevoluptas.png?size=1000x1000&set=set1","description":"Donec quis orci eget orci vehicula condimentum.","location":{"address":"52 Kensington Junction","lat":39.9332981,"lon":116.4251275},"availableRooms":[],"unavailableRooms":[]},
{"id":18,"name":"Fiveclub","image":"https://robohash.org/quomolestiaeexcepturi.png?size=1000x1000&set=set1","description":"Donec ut dolor. Morbi vel lectus in quam fringilla rhoncus.","location":{"address":"81335 Algoma Drive","lat":52.6924095,"lon":14.6086793},"availableRooms":[{"id":1,"name":"Kayveo"}],"unavailableRooms":[]},
{"id":19,"name":"Riffpedia","image":"https://robohash.org/quisnecessitatibusiure.png?size=1000x1000&set=set1","description":"Vivamus in felis eu sapien cursus vestibulum. Proin eu mi. Nulla ac enim.","location":{"address":"241 Doe Crossing Center","lat":41.669412,"lon":112.915135},"availableRooms":[{"id":1,"name":"Wikibox"},{"id":2,"name":"Vipe"},{"id":3,"name":"Twitterbridge"},{"id":4,"name":"Thoughtmix"},{"id":5,"name":"Jabberbean"},{"id":6,"name":"Twimbo"},{"id":7,"name":"Agimba"},{"id":8,"name":"Mybuzz"},{"id":9,"name":"Flashdog"}],"unavailableRooms":[]},
{"id":20,"name":"Realcube","image":"https://robohash.org/repellendusiuresed.png?size=1000x1000&set=set1","description":"Nulla mollis molestie lorem.","location":{"address":"91 Clemons Terrace","lat":59.3354247,"lon":18.067173},"availableRooms":[{"id":1,"name":"Tanoodle"}],"unavailableRooms":[]}]